{
	"storeList":[
		{
			"name":"만리장성",
			"addr":"서울시",
			"lati":37.570510,
			"longi":126.988101,
			"memo":"만리장성",
			"icons_id":2
		},
		{
			"name":"김밥천국",
			"addr":"종각역",
			"lati":37.570518,
			"longi":126.988110,
			"memo":"참치김밥사진",
			"icons_id":1
		},
		{
			"name":"비비큐",
			"addr":"종로",
			"lati":37.570728,
			"longi":126.988120,
			"memo":"황금올리브",
			"icons_id":5
		},
		{
			"name":"버거킹",
			"addr":"종각",
			"lati":37.570516,
			"longi":126.988113,
			"memo":"와퍼",
			"icons_id":6
		},
		{
			"name":"할매순대국",
			"addr":"종각역",
			"lati":37.570526,
			"longi":126.988133,
			"memo":"순대국밥",
			"icons_id":2
		}
		
	]	
}



















